<?xml version="1.0" encoding="UTF-8"?>
<kml xmlns="http://www.opengis.net/kml/2.2"><Document><name>Niña — Percorso 2026</name>
<Style id="ovest"><LineStyle><color>ffe06f3d</color><width>4</width></LineStyle></Style>
<Style id="est"><LineStyle><color>ff3b74e8</color><width>3</width></LineStyle></Style>
<Style id="giro"><LineStyle><color>ff5b9e2e</color><width>4</width></LineStyle></Style>
<Folder><name>Tappe</name><Placemark><name>Cannigione</name><description>[tappa notte]</description><Point><coordinates>9.4404,41.1069,0</coordinates></Point></Placemark><Placemark><name>Lavezzi</name><description>[tappa notte]</description><Point><coordinates>9.2544,41.3392,0</coordinates></Point></Placemark><Placemark><name>Spargi</name><description>[sosta/pranzo]</description><Point><coordinates>9.3389,41.2311,0</coordinates></Point></Placemark><Placemark><name>Budelli</name><description>[sosta/pranzo]</description><Point><coordinates>9.3556,41.2789,0</coordinates></Point></Placemark><Placemark><name>Santamaria</name><description>[sosta/pranzo]</description><Point><coordinates>9.39,41.295,0</coordinates></Point></Placemark><Placemark><name>Rondinara</name><description>[tappa notte]</description><Point><coordinates>9.2775,41.4767,0</coordinates></Point></Placemark><Placemark><name>Coticcio</name><description>[tappa notte]</description><Point><coordinates>9.465,41.2075,0</coordinates></Point></Placemark><Placemark><name>Bastia</name><description>[sosta/pranzo]</description><Point><coordinates>9.455,42.7,0</coordinates></Point></Placemark><Placemark><name>Bonifacio</name><description>[tappa notte]</description><Point><coordinates>9.1592,41.3872,0</coordinates></Point></Placemark><Placemark><name>Cala Portese</name><description>[tappa notte] Fondo sabbia bianca, ben ridossata; campo boe estivo del Parco La Maddalena (ancoraggio consentito fuori boe), molto affollata in agosto [coord. da verificare]</description><Point><coordinates>9.4633,41.1831,0</coordinates></Point></Placemark><Placemark><name>Porto Palma</name><description>[tappa notte] Ridossata da tutto tranne S; miglior tenuta lato E in 5-9 m sabbia (chiazze posidonia/fango); boe estive; base velica CVC con regate mag-ott</description><Point><coordinates>9.4505,41.1892,0</coordinates></Point></Placemark><Placemark><name>Capo Pertusato</name><description>[landmark] Landmark: faro su falesia 66 m slm, estremita sud della Corsica; nessun ancoraggio, doppiare con margine con mistral/libeccio</description><Point><coordinates>9.1844,41.3675,0</coordinates></Point></Placemark><Placemark><name>Santa Manza</name><description>[sosta/pranzo] Sabbia buona tenuta ~6 m, ottimo riparo da W/mistral ma aperto a NE; ZMEL Bonifacio Marina 15 boe (obbligatorie per unita &gt;24 m); zona kite/windsurf</description><Point><coordinates>9.2203,41.4087,0</coordinates></Point></Placemark><Placemark><name>Marmorata</name><description>[tappa notte] Sabbia e posidonia, ancorare sulle chiazze chiare in 5-6 m; ridosso da maestrale subito a S dell'isolotto maggiore; passaggio isolotti-costa con fondale ~1 m, non tentare</description><Point><coordinates>9.238,41.25,0</coordinates></Point></Placemark><Placemark><name>Porto Madonna</name><description>[tappa notte] Ormeggio SOLO su boe del Parco (a pagamento, poche rispetto alla domanda, ~7 m sabbia/posidonia); zona piscine naturali interdetta a navigazione/ancoraggio, accesso solo a remi/nuoto; permesso Parco o [coord. da verifica</description><Point><coordinates>9.357,41.288,0</coordinates></Point></Placemark><Placemark><name>Santa Giulia</name><description>[sosta/pranzo] ZMEL organizzata: 30 boe visitatori per taglia (3xx &lt;9m, 2xx 9-15m, 1xx 15-20m), seguire i marker a 300 m dalla riva sud; baia sabbiosa poco profonda, aperta a E</description><Point><coordinates>9.2783,41.524,0</coordinates></Point></Placemark><Placemark><name>Cala Rossa</name><description>[sosta/pranzo] Cala quasi interamente occupata dal campo boe ANCRE (boe visitatori prenotabili online); fuori boe ancorare su sabbia 4-8 m; buon ridosso da N/NW, aperta a S [coord. da verificare]</description><Point><coordinates>9.3325,41.617,0</coordinates></Point></Placemark><Placemark><name>San Ciprianu</name><description>[sosta/pranzo] Baia a mezzaluna ben protetta, sabbia e posidonia (qualche roccia verso il fondo della baia); isolotto San Ciprianu all'ingresso; buona tappa a 4 M dal porto di Porto-Vecchio [coord. da verificare]</description><Point><coordinates>9.3533,41.6283,0</coordinates></Point></Placemark><Placemark><name>Cala di Conca</name><description>[sosta/pranzo] Cala stretta, fondo sabbia 2-16 m; buon ridosso da maestrale ma aperta a libeccio/onda; scoglio affiorante a 1.8 m circa 400 m a WSW dell'ingresso; affollata in agosto.</description><Point><coordinates>8.8036,41.5746,0</coordinates></Point></Placemark><Placemark><name>Tizzano</name><description>[tappa notte] Ancorare all'ingresso della cala fuori dal porticciolo, 3-8 m solo su sabbia; esposto a SW; secca di 1.5 m circa 200 m a S della punta W dell'ingresso; pontili interni max 1.5 m pescaggio. [coord. da verificare]</description><Point><coordinates>8.8501,41.5398,0</coordinates></Point></Placemark><Placemark><name>Cala Longa Tizzano</name><description>[sosta/pranzo] Caletta selvaggia presso Punta di Capicciolu tra Tizzano e Senetosa, ben ridossata dai venti, usata come rifugio; sabbia; nessun servizio; da non confondere con la Cala Longa di Bonifacio. [coord. da verificare]</description><Point><coordinates>8.8161,41.5549,0</coordinates></Point></Placemark><Placemark><name>Capo Senetosa</name><description>[landmark] Faro bianco a doppia torre; attenzione agli scogli Les Moines a S del capo; ancoraggi adiacenti: Cala di Conca a N, Cala Longa/Cala di Barcaju a E.</description><Point><coordinates>8.79419,41.55851,0</coordinates></Point></Placemark><Placemark><name>Campomoro</name><description>[tappa notte] Fondo sabbia con chiazze di posidonia/alga 5-15 m (fino a 30 m piu' fuori); ottimo ridosso da W/SW, esposto a NW; divieto di ancoraggio entro 300 m dalla spiaggia (fascia balneare/allevamento). [coord. da verificare]</description><Point><coordinates>8.8098,41.6342,0</coordinates></Point></Placemark><Placemark><name>Capo di Muro</name><description>[landmark] Limite S del golfo di Ajaccio, faro sulla punta W; ridosso piu' vicino nell'anse de Cala d'Orzu subito a SE del capo (sabbia, aperta a S). [coord. da verificare]</description><Point><coordinates>8.67314,41.7461,0</coordinates></Point></Placemark><Placemark><name>Isolella</name><description>[tappa notte] Campo boe comunale (ZMEL Pietrosella, ~400 gavitelli totali con Stagnola e Ste-Barbe, mag-ott); vietato ancorare fuori dalle boe e entro 300 m dalle spiagge; boa assegnata dal gestore. [coord. da verificare]</description><Point><coordinates>8.76,41.83733,0</coordinates></Point></Placemark><Placemark><name>Anse Chiuni</name><description>[sosta/pranzo] Baia ben protetta e poco profonda tra Punta d'Orchinu e Punta Omigna, fondo sabbia 3-6 m, buona tenuta; apre a W (attenzione con ponente/onda residua).</description><Point><coordinates>8.5895,42.1701,0</coordinates></Point></Placemark><Placemark><name>Girolata</name><description>[tappa notte] Ormeggio solo su gavitello (capitaneria 7/7 8-20, mag-set, anche boe superyacht max 30 m); ancoraggio libero di fatto vietato/limitato per posidonia e spazio; in agosto arrivare presto.</description><Point><coordinates>8.61306,42.34917,0</coordinates></Point></Placemark><Placemark><name>Scandola</name><description>[landmark] Riserva integrale: divieto assoluto di sosta/ancoraggio giorno e notte, pesca e sbarco; zona interdetta rinforzata attorno alla punta (nidi di falco pescatore); transito max 5 kn, organi basaltici a v</description><Point><coordinates>8.54901,42.37863,0</coordinates></Point></Placemark><Placemark><name>Calvi Alga</name><description>[sosta/pranzo] Fondo sabbia con chiazze di posidonia, 3-8 m; ottimo ridosso da libeccio (SW), aperta a N/NE; in alternativa lato N di Punta Oscelluccia.</description><Point><coordinates>8.7277,42.5628,0</coordinates></Point></Placemark><Placemark><name>San Fiorenzo</name><description>[tappa notte] Ancorare su 5-6 m sabbia e alghe, fondale degrada dolcemente; riparata da W/SW/S/SE/E, da abbandonare con previsione di N/NE. [coord. da verificare]</description><Point><coordinates>9.2815,42.6858,0</coordinates></Point></Placemark><Placemark><name>Saleccia</name><description>[sosta/pranzo] Fondo sabbia, buona tenuta, ma rada aperta: solo con meteo stabile e mare calmo; in estate ancorare oltre la fascia balneare 300 m.</description><Point><coordinates>9.205,42.72867,0</coordinates></Point></Placemark><Placemark><name>Lotu</name><description>[sosta/pranzo] Sabbia, buona tenuta; obbligo ancoraggio oltre 300 m dalla spiaggia; protetta da W/SW, esposta a N-NW. [coord. da verificare]</description><Point><coordinates>9.2328,42.7225,0</coordinates></Point></Placemark><Placemark><name>Malfalco</name><description>[sosta/pranzo] Cala stretta: si dà fondo al centro su 2-3 m sabbia/roccia; ridosso discreto da W moderato, esposta a risacca con NW-NE, rollio con mistral. [coord. da verificare]</description><Point><coordinates>9.118,42.7236,0</coordinates></Point></Placemark><Placemark><name>Centuri</name><description>[tappa notte] Porticciolo minuscolo (max ~10 m, pescaggio max 2 m, 0,8 m minimo): in agosto quasi sempre pieno; le barche a vela ancorano fuori davanti al porto su sabbia, solo con calma da W.</description><Point><coordinates>9.3504,42.9662,0</coordinates></Point></Placemark><Placemark><name>Barcaggio</name><description>[sosta/pranzo] Fondo sabbia con alghe e rocce, bassi fondali; rada aperta a quasi tutti i venti e a corrente del canale della Giraglia: solo sosta diurna con mare calmo, ridosso da SE a NE della spiaggia.</description><Point><coordinates>9.4112,43.0079,0</coordinates></Point></Placemark><Placemark><name>Giraglia</name><description>[landmark] Landmark: isolotto con faro e torre genovese ~1 NM a N di Barcaggio; canale con corrente e mare confuso con vento contro corrente, tenersi larghi dai bassi lato Corsica.</description><Point><coordinates>9.40556,43.02667,0</coordinates></Point></Placemark><Placemark><name>Macinaggio</name><description>[sosta/pranzo] Marina ~585 posti, base classica prima/dopo il doppiaggio del Capo; in agosto prenotare; ancoraggio possibile nella baia a N del porto su sabbia.</description><Point><coordinates>9.45451,42.96098,0</coordinates></Point></Placemark><Placemark><name>Tamarone</name><description>[sosta/pranzo] Fondo sabbia con chiazze di roccia/posidonia, 3-6 m; buon ridosso da W/SW (libeccio), aperta a E-NE; comoda alternativa gratuita a Macinaggio. [coord. da verificare]</description><Point><coordinates>9.457,42.9755,0</coordinates></Point></Placemark><Placemark><name>Erbalunga</name><description>[tappa notte] Rada aperta appena a N/E del porticciolo (porto solo &lt;8 m). Fondo sabbia e roccia, tenuta discreta; ridossata solo da venti occidentali, evitare con vento da E. [coord. da verificare]</description><Point><coordinates>9.4787,42.7742,0</coordinates></Point></Placemark><Placemark><name>Foce Golo</name><description>[sosta/pranzo] Costa sabbiosa rettilinea completamente aperta: solo sosta diurna con mare calmo. Possibili banchi di sabbia mobili davanti alla foce, avvicinarsi con ecoscandaglio. [coord. da verificare]</description><Point><coordinates>9.537,42.5242,0</coordinates></Point></Placemark><Placemark><name>Campoloro</name><description>[tappa notte] Unico porto-rifugio tra Bastia e Solenzara sulla costa orientale. Entrata con risacca in caso di forte vento da E/SE; carburante e servizi disponibili.</description><Point><coordinates>9.539,42.34135,0</coordinates></Point></Placemark><Placemark><name>Solenzara</name><description>[sosta/pranzo] Marina 450 posti, 8 pontili. In alternativa rada sabbiosa a S della foce del fiume Solenzara utilizzabile solo con tempo stabile.</description><Point><coordinates>9.4037,41.8572,0</coordinates></Point></Placemark><Placemark><name>Canella</name><description>[sosta/pranzo] Cala ben protetta da W/SW (libeccio), fondo sabbia con buona tenuta; aperta a E. Fondale basso vicino a riva, molto frequentata in agosto.</description><Point><coordinates>9.397,41.8,0</coordinates></Point></Placemark><Placemark><name>Favone</name><description>[tappa notte] Baia sabbiosa con buona tenuta, riparata da W; aperta a E-NE. Verificare posidonia prima di dare fondo; Navily mouillage #8055.</description><Point><coordinates>9.3986,41.7742,0</coordinates></Point></Placemark><Placemark><name>Fautea</name><description>[sosta/pranzo] Ancoraggio nella baia a S della torre genovese del 1592, fondo sabbia; sito protetto Conservatoire du Littoral. Riparo discreto con tempo buono ma esposto a E, tenibile di notte solo con meteo stabile [coord. da verifica</description><Point><coordinates>9.4045,41.7135,0</coordinates></Point></Placemark><Placemark><name>Pinarello</name><description>[sosta/pranzo] Punto migliore ai due lati del passo tra isola di Pinarellu (torre genovese) e terraferma; fondo sabbia e roccia. Buona protezione da SW ma raffiche; attenzione allo scoglio Roscana e ai sub. Non teni [coord. da verifica</description><Point><coordinates>9.39,41.672,0</coordinates></Point></Placemark><Placemark><name>Palombaggia</name><description>[tappa notte] Dare fondo solo su sabbia: le praterie di posidonia sono balisate e l'ancoraggio sopra e' vietato (arrete prefettizio 2023; &gt;24 m vietato tra Punta Chiappa e Capicciolu). Riparata da NW dalla penisola</description><Point><coordinates>9.3305,41.5555,0</coordinates></Point></Placemark><Placemark><name>Ficajola</name><description>[sosta/pranzo] Caletta minuscola sotto le Calanche di Piana (golfo di Porto), fondo sabbia/roccia, spazio per pochissime barche. Solo sosta diurna con mare calmo: completamente esposta a W/SW e alla risacca da ponen [coord. da verifica</description><Point><coordinates>8.6262,42.252,0</coordinates></Point></Placemark><Placemark><name>Porto Rotondo</name><description>[tappa notte] Marina + rada; base logistica drop-off/pickup 21-22/8, aeroporto Olbia ~20 min [coord. da verificare]</description><Point><coordinates>9.5485,41.0315,0</coordinates></Point></Placemark><Placemark><name>Golfo di Marinella</name><description>[sosta/pranzo] Baia sabbiosa ampia, buona tenuta; comoda per transfer aeroporto [coord. da verificare]</description><Point><coordinates>9.568,41.047,0</coordinates></Point></Placemark><Placemark><name>Golfo di Cugnana</name><description>[sosta/pranzo] Golfo riparato a S di Porto Rotondo; alternativa per la notte [coord. da verificare]</description><Point><coordinates>9.529,41.021,0</coordinates></Point></Placemark></Folder><Folder><name>Rotte</name><Placemark><name>Rotta OVEST 8-21/8 (default)</name><styleUrl>#ovest</styleUrl><description>OVEST antiorario (default). Segue il mare a scala di crociera: NON e' una traccia di navigazione. Termina a Porto Rotondo per drop-off/pickup del 21-22/8.</description><LineString><tessellate>1</tessellate><coordinates>9.4404,41.1069,0 9.457,41.148,0 9.483,41.16,0 9.4633,41.1831,0 9.483,41.16,0 9.428,41.157,0 9.398,41.17,0 9.39,41.181,0 9.38,41.192,0 9.368,41.207,0 9.358,41.212,0 9.302,41.23,0 9.285,41.3,0 9.2544,41.3392,0 9.185,41.35,0 9.115,41.378,0 9.146,41.391,0 9.1592,41.3872,0 9.146,41.391,0 9.115,41.378,0 8.885,41.465,0 8.772,41.548,0 8.782,41.558,0 8.8036,41.5746,0 8.782,41.558,0 8.772,41.548,0 8.842,41.525,0 8.8501,41.5398,0 8.842,41.525,0 8.752,41.535,0 8.755,41.6,0 8.788,41.648,0 8.8098,41.6342,0 8.788,41.648,0 8.77,41.665,0 8.645,41.735,0 8.7,41.795,0 8.76,41.83733,0 8.655,41.8,0 8.535,41.858,0 8.545,41.965,0 8.545,42.125,0 8.56,42.168,0 8.5895,42.1701,0 8.56,42.168,0 8.525,42.245,0 8.565,42.326,0 8.594,42.341,0 8.61306,42.34917,0 8.594,42.341,0 8.565,42.326,0 8.545,42.318,0 8.505,42.385,0 8.65,42.525,0 8.705,42.592,0 8.73,42.583,0 8.7277,42.5628,0 8.745,42.585,0 8.96,42.705,0 9.23,42.76,0 9.2815,42.6858,0 9.272,42.712,0 9.238,42.74,0 9.215,42.745,0 9.205,42.72867,0 9.2,42.752,0 9.29,42.885,0 9.3504,42.9662,0 9.33,43.012,0 9.4112,43.0079,0 9.398,43.014,0 9.40556,43.02667,0 9.44,43.03,0 9.49,42.99,0 9.457,42.9755,0 9.472,42.968,0 9.45451,42.96098,0 9.49,42.935,0 9.515,42.87,0 9.505,42.8,0 9.495,42.784,0 9.4787,42.7742,0 9.48,42.76,0 9.475,42.7,0 9.455,42.7,0 9.475,42.7,0 9.505,42.6,0 9.537,42.5242,0 9.565,42.43,0 9.562,42.345,0 9.539,42.34135,0 9.56,42.33,0 9.578,42.2,0 9.585,42.1,0 9.48,41.95,0 9.435,41.87,0 9.4037,41.8572,0 9.425,41.848,0 9.417,41.838,0 9.397,41.8,0 9.42,41.828,0 9.425,41.765,0 9.3986,41.7742,0 9.422,41.758,0 9.425,41.7,0 9.4045,41.7135,0 9.418,41.695,0 9.415,41.672,0 9.39,41.672,0 9.405,41.655,0 9.375,41.635,0 9.3533,41.6283,0 9.368,41.622,0 9.35,41.607,0 9.337,41.61,0 9.3325,41.617,0 9.345,41.605,0 9.395,41.59,0 9.4,41.578,0 9.375,41.565,0 9.3305,41.5555,0 9.36,41.545,0 9.33,41.52,0 9.305,41.47,0 9.258,41.395,0 9.242,41.38,0 9.22525,41.37452,0 9.38,41.3,0 9.53,41.245,0 9.565,41.15,0 9.585,41.115,0 9.592,41.07,0 9.582,41.045,0 9.568,41.047,0 9.556,41.04,0 9.5485,41.0315,0</coordinates></LineString></Placemark><Placemark><name>Rotta EST 8-21/8 (se Maestrale)</name><styleUrl>#est</styleUrl><description>EST orario, alternativa se Maestrale NW &gt;= 15-20 kn (costa est riparata). Pickup del 15/8 a Bastia invece che San Fiorenzo.</description><LineString><tessellate>1</tessellate><coordinates>9.4404,41.1069,0 9.457,41.148,0 9.428,41.157,0 9.398,41.17,0 9.39,41.181,0 9.38,41.192,0 9.368,41.207,0 9.358,41.212,0 9.345,41.222,0 9.3389,41.2311,0 9.345,41.222,0 9.302,41.23,0 9.285,41.3,0 9.2544,41.3392,0 9.29,41.36,0 9.305,41.47,0 9.3,41.524,0 9.2783,41.524,0 9.3,41.524,0 9.33,41.52,0 9.375,41.565,0 9.3305,41.5555,0 9.4,41.578,0 9.395,41.59,0 9.42,41.66,0 9.415,41.672,0 9.39,41.672,0 9.415,41.672,0 9.425,41.7,0 9.4045,41.7135,0 9.422,41.758,0 9.425,41.765,0 9.3986,41.7742,0 9.42,41.828,0 9.417,41.838,0 9.397,41.8,0 9.425,41.848,0 9.435,41.87,0 9.4037,41.8572,0 9.48,41.95,0 9.585,42.1,0 9.578,42.2,0 9.56,42.33,0 9.562,42.345,0 9.539,42.34135,0 9.565,42.43,0 9.537,42.5242,0 9.505,42.6,0 9.475,42.7,0 9.455,42.7,0 9.48,42.76,0 9.495,42.784,0 9.4787,42.7742,0 9.498,42.784,0 9.51,42.81,0 9.515,42.87,0 9.49,42.935,0 9.45451,42.96098,0 9.472,42.968,0 9.457,42.9755,0 9.49,42.99,0 9.44,43.03,0 9.40556,43.02667,0 9.398,43.014,0 9.4112,43.0079,0 9.33,43.012,0 9.3504,42.9662,0 9.29,42.885,0 9.2,42.752,0 9.238,42.74,0 9.272,42.712,0 9.2815,42.6858,0 9.272,42.712,0 9.238,42.74,0 9.215,42.745,0 9.205,42.72867,0 9.19,42.75,0 9.13,42.755,0 9.118,42.7236,0 9.115,42.75,0 8.87,42.64,0 8.755,42.6,0 8.745,42.585,0 8.73,42.583,0 8.7277,42.5628,0 8.73,42.583,0 8.703,42.594,0 8.65,42.525,0 8.505,42.385,0 8.545,42.318,0 8.565,42.326,0 8.594,42.341,0 8.61306,42.34917,0 8.594,42.341,0 8.565,42.326,0 8.545,42.318,0 8.545,42.3,0 8.54,42.226,0 8.56,42.168,0 8.5895,42.1701,0 8.56,42.168,0 8.545,42.125,0 8.545,41.965,0 8.535,41.858,0 8.645,41.735,0 8.755,41.6,0 8.752,41.535,0 8.842,41.525,0 8.8501,41.5398,0 8.842,41.525,0 8.905,41.47,0 9.03,41.395,0 9.13,41.36,0 9.185,41.35,0 9.205,41.357,0 9.218,41.366,0 9.22525,41.37452,0 9.38,41.3,0 9.53,41.245,0 9.565,41.15,0 9.585,41.115,0 9.592,41.07,0 9.582,41.045,0 9.568,41.047,0 9.556,41.04,0 9.5485,41.0315,0</coordinates></LineString></Placemark><Placemark><name>Giro corto 23-29/8</name><styleUrl>#giro</styleUrl><description>Giro corto 23-29/8: Maddalena + sud Corsica, da Porto Rotondo allo sbarco di Cannigione.</description><LineString><tessellate>1</tessellate><coordinates>9.5485,41.0315,0 9.556,41.04,0 9.582,41.045,0 9.592,41.07,0 9.585,41.115,0 9.565,41.15,0 9.52,41.218,0 9.482,41.204,0 9.47,41.206,0 9.465,41.2075,0 9.47,41.206,0 9.482,41.204,0 9.502,41.19,0 9.483,41.163,0 9.452,41.176,0 9.4505,41.1892,0 9.452,41.176,0 9.462,41.163,0 9.428,41.157,0 9.398,41.17,0 9.39,41.181,0 9.38,41.192,0 9.368,41.207,0 9.358,41.212,0 9.345,41.222,0 9.3389,41.2311,0 9.345,41.222,0 9.366,41.24,0 9.372,41.272,0 9.357,41.288,0 9.375,41.298,0 9.32,41.335,0 9.2544,41.3392,0 9.22525,41.37452,0 9.218,41.366,0 9.205,41.357,0 9.185,41.35,0 9.115,41.378,0 9.146,41.391,0 9.1592,41.3872,0 9.146,41.391,0 9.115,41.378,0 9.185,41.35,0 9.205,41.357,0 9.252,41.372,0 9.278,41.42,0 9.25,41.414,0 9.232,41.411,0 9.2203,41.4087,0 9.232,41.411,0 9.25,41.414,0 9.278,41.42,0 9.292,41.435,0 9.292,41.448,0 9.2775,41.4767,0 9.292,41.448,0 9.29,41.34,0 9.238,41.25,0 9.265,41.245,0 9.31,41.23,0 9.34,41.215,0 9.358,41.212,0 9.368,41.207,0 9.38,41.192,0 9.39,41.181,0 9.398,41.17,0 9.428,41.157,0 9.47,41.163,0 9.502,41.19,0 9.482,41.204,0 9.47,41.206,0 9.465,41.2075,0 9.47,41.206,0 9.482,41.204,0 9.502,41.19,0 9.483,41.163,0 9.457,41.148,0 9.4404,41.1069,0</coordinates></LineString></Placemark></Folder></Document></kml>
